{
  "_comment": "Editable city list for the Vector Risk Index. Add/remove freely; no code changes needed. lat/lon are approximate city centers (WGS84). Districts can be added later with the same schema.",
  "cities": [
    { "name": "Mumbai",            "state": "Maharashtra",      "lat": 19.0760, "lon": 72.8777 },
    { "name": "Delhi",             "state": "Delhi",            "lat": 28.6139, "lon": 77.2090 },
    { "name": "Bengaluru",         "state": "Karnataka",        "lat": 12.9716, "lon": 77.5946 },
    { "name": "Hyderabad",         "state": "Telangana",        "lat": 17.3850, "lon": 78.4867 },
    { "name": "Chennai",           "state": "Tamil Nadu",       "lat": 13.0827, "lon": 80.2707 },
    { "name": "Kolkata",           "state": "West Bengal",      "lat": 22.5726, "lon": 88.3639 },
    { "name": "Pune",              "state": "Maharashtra",      "lat": 18.5204, "lon": 73.8567 },
    { "name": "Ahmedabad",         "state": "Gujarat",          "lat": 23.0225, "lon": 72.5714 },
    { "name": "Jaipur",            "state": "Rajasthan",        "lat": 26.9124, "lon": 75.7873 },
    { "name": "Lucknow",           "state": "Uttar Pradesh",    "lat": 26.8467, "lon": 80.9462 },
    { "name": "Kanpur",            "state": "Uttar Pradesh",    "lat": 26.4499, "lon": 80.3319 },
    { "name": "Nagpur",            "state": "Maharashtra",      "lat": 21.1458, "lon": 79.0882 },
    { "name": "Indore",            "state": "Madhya Pradesh",   "lat": 22.7196, "lon": 75.8577 },
    { "name": "Bhopal",            "state": "Madhya Pradesh",   "lat": 23.2599, "lon": 77.4126 },
    { "name": "Patna",             "state": "Bihar",            "lat": 25.5941, "lon": 85.1376 },
    { "name": "Surat",             "state": "Gujarat",          "lat": 21.1702, "lon": 72.8311 },
    { "name": "Visakhapatnam",     "state": "Andhra Pradesh",   "lat": 17.6868, "lon": 83.2185 },
    { "name": "Kochi",             "state": "Kerala",           "lat": 9.9312,  "lon": 76.2673 },
    { "name": "Thiruvananthapuram","state": "Kerala",           "lat": 8.5241,  "lon": 76.9366 },
    { "name": "Guwahati",          "state": "Assam",            "lat": 26.1445, "lon": 91.7362 },
    { "name": "Bhubaneswar",       "state": "Odisha",           "lat": 20.2961, "lon": 85.8245 },
    { "name": "Coimbatore",        "state": "Tamil Nadu",       "lat": 11.0168, "lon": 76.9558 },
    { "name": "Madurai",           "state": "Tamil Nadu",       "lat": 9.9252,  "lon": 78.1198 },
    { "name": "Varanasi",          "state": "Uttar Pradesh",    "lat": 25.3176, "lon": 82.9739 },
    { "name": "Ranchi",            "state": "Jharkhand",        "lat": 23.3441, "lon": 85.3096 },
    { "name": "Raipur",            "state": "Chhattisgarh",     "lat": 21.2514, "lon": 81.6296 },
    { "name": "Nashik",            "state": "Maharashtra",      "lat": 19.9975, "lon": 73.7898 },
    { "name": "Chandigarh",        "state": "Chandigarh",       "lat": 30.7333, "lon": 76.7794 },
    { "name": "Amritsar",          "state": "Punjab",           "lat": 31.6340, "lon": 74.8723 },
    { "name": "Jodhpur",           "state": "Rajasthan",        "lat": 26.2389, "lon": 73.0243 },
    { "name": "Srinagar",          "state": "Jammu & Kashmir",  "lat": 34.0837, "lon": 74.7973 },
    { "name": "Shimla",            "state": "Himachal Pradesh", "lat": 31.1048, "lon": 77.1734 }
  ]
}
